$GPRMC,,V,,,,,,,,,,N*53
$GPVTG,,,,,,,,,N*30
$GPGGA,,,,,,0,00,99.99,,,,,,*48
$GPGSA,A,1,,,,,,,,,,,,,99.99,99.99,99.99*30
$GPGSV,1,1,01,22,,,10*79
$GPGLL,,,,,,V,N*64

$GPRMC,090820.00,V,,,,,,,111121,,,N*7D
$GPVTG,,,,,,,,,N*30
$GPGGA,090820.00,,,,,0,04,3.91,,,,,,0000*5A
$GPGSA,A,1,32,26,16,25,,,,,,,,,4.03,3.91,1.00*08
$GPGSV,2,1,06,16,24,217,41,25,18,044,22,26,66,223,29,29,,,19*4D
$GPGSV,2,2,06,32,47,134,44,50,46,163,36*7D
$GPGLL,,,,,090820.00,V,N*49


$GPRMC,090900.00,A,3639.92699,N,11708.17674,E,0.690,,111121,,,D*77
$GPVTG,,T,,M,0.690,N,1.277,K,D*2A
$GPGGA,090900.00,3639.92699,N,11708.17674,E,2,04,2.01,237.2,M,-4.7,M,,0000*4C
$GPGSA,A,3,32,26,16,25,,,,,,,,,3.04,2.01,2.28*0B
$GPGSV,2,1,07,16,24,217,40,20,,,10,25,18,044,26,26,66,223,28*48
$GPGSV,2,2,07,29,,,24,32,47,134,45,50,46,163,35*73
$GPGLL,3639.92699,N,11708.17674,E,090900.00,A,D*62



$GPRMC,090957.00,A,3639.93829,N,11708.17653,E,0.991,,111121,,,D*7A
$GPVTG,,T,,M,0.991,N,1.835,K,D*28
$GPGGA,090957.00,3639.93829,N,11708.17653,E,2,04,1.99,235.1,M,-4.7,M,,0000*4C
$GPGSA,A,3,32,26,16,25,,,,,,,,,3.02,1.99,2.28*0F
$GPGSV,2,1,05,16,24,217,41,25,18,045,22,26,66,224,29,32,47,135,43*79
$GPGSV,2,2,05,50,46,163,35*49
$GPGLL,3639.93829,N,11708.17653,E,090957.00,A,D*61



218
$GPRMC,085324.00,A,3640.01209,N,11708.17661,E,3.962,165.59,171121,,,A*60
$GPVTG,165.59,T,,M,3.962,N,7.338,K,A*32
$GPGGA,085324.00,3640.01209,N,11708.17661,E,1,04,4.16,130.1,M,-4.7,M,,*4D
$GPGSA,A,3,31,22,03,25,,,,,,,,,4.74,4.16,2.27*07
$GPGSV,2,1,05,03,28,293,38,22,29,268,30,25,15,045,29,29,28,070,20*7C
$GPGSV,2,2,05,31,64,022,35*4A
$GPGLL,3640.01209,N,11708.17661,E,085324.00,A,A*62


219
$GPRMC,085325.00,A,3640.01187,N,11708.17669,E,3.305,166.66,171121,,,A*68
$GPVTG,166.66,T,,M,3.305,N,6.120,K,A*3C
$GPGGA,085325.00,3640.01187,N,11708.17669,E,1,04,4.16,129.9,M,-4.7,M,,*41
$GPGSA,A,3,31,22,03,25,,,,,,,,,4.74,4.16,2.27*07
$GPGSV,2,1,05,03,28,293,38,22,29,268,28,25,15,045,29,29,28,070,18*7E
$GPGSV,2,2,05,31,64,022,35*4A
$GPGLL,3640.01187,N,11708.17669,E,085325.00,A,A*6E


220
$GPRMC,085326.00,A,3640.01151,N,11708.17680,E,1.938,166.50,171121,,,A*64
$GPVTG,166.50,T,,M,1.938,N,3.590,K,A*35
$GPGGA,085326.00,3640.01151,N,11708.17680,E,1,04,4.15,129.5,M,-4.7,M,,*41
$GPGSA,A,3,31,22,03,25,,,,,,,,,4.74,4.15,2.27*04
$GPGSV,2,1,05,03,28,293,40,22,29,268,28,25,15,045,29,29,28,070,15*7C
$GPGSV,2,2,05,31,64,022,35*4A
$GPGLL,3640.01151,N,11708.17680,E,085326.00,A,A*61


221
$GPRMC,085327.00,A,3640.01101,N,11708.17701,E,2.747,164.30,171121,,,A*69
$GPVTG,164.30,T,,M,2.747,N,5.088,K,A*3E
$GPGGA,085327.00,3640.01101,N,11708.17701,E,1,04,4.15,129.0,M,-4.7,M,,*48
$GPGSA,A,3,31,22,03,25,,,,,,,,,4.74,4.15,2.27*04
$GPGSV,2,1,05,03,28,293,37,22,29,268,28,25,15,045,30,29,28,070,15*74
$GPGSV,2,2,05,31,64,022,31*4E
$GPGLL,3640.01101,N,11708.17701,E,085327.00,A,A*6D


222
$GPRMC,085328.00,A,3640.01070,N,11708.17714,E,3.637,163.40,171121,,,A*62
$GPVTG,163.40,T,,M,3.637,N,6.735,K,A*3B
$GPGGA,085328.00,3640.01070,N,11708.17714,E,1,04,4.15,128.6,M,-4.7,M,,*43
$GPGSA,A,3,31,22,03,25,,,,,,,,,4.73,4.15,2.27*03
$GPGSV,2,1,05,03,28,293,37,22,29,268,28,25,15,045,29,29,28,070,16*7F
$GPGSV,2,2,05,31,64,022,31*4E
$GPGLL,3640.01070,N,11708.17714,E,085328.00,A,A*61


223
$GPRMC,085329.00,A,3640.01062,N,11708.17718,E,2.449,163.72,171121,,,A*67
$GPVTG,163.72,T,,M,2.449,N,4.536,K,A*33
$GPGGA,085329.00,3640.01062,N,11708.17718,E,1,04,4.15,128.4,M,-4.7,M,,*4F
$GPGSA,A,3,31,22,03,25,,,,,,,,,4.73,4.15,2.27*03
$GPGSV,2,1,05,03,28,293,37,22,29,268,29,25,15,045,28,29,28,070,18*71
$GPGSV,2,2,05,31,64,022,30*4F
$GPGLL,3640.01062,N,11708.17718,E,085329.00,A,A*6F


224
$GPRMC,085330.00,A,3640.01051,N,11708.17719,E,1.335,,171121,,,A*7E
$GPVTG,,T,,M,1.335,N,2.473,K,A*25
$GPGGA,085330.00,3640.01051,N,11708.17719,E,1,04,4.15,128.1,M,-4.7,M,,*43
$GPGSA,A,3,31,22,03,25,,,,,,,,,4.73,4.15,2.27*03
$GPGSV,2,1,05,03,28,293,37,22,29,268,30,25,15,045,28,29,28,070,19*78
$GPGSV,2,2,05,31,64,022,29*47
$GPGLL,3640.01051,N,11708.17719,E,085330.00,A,A*66



$GPRMC,085331.00,A,3640.01007,N,11708.17724,E,2.362,162.85,171121,,,A*65
$GPVTG,162.85,T,,M,2.362,N,4.374,K,A*34
$GPGGA,085331.00,3640.01007,N,11708.17724,E,1,04,4.15,127.0,M,-4.7,M,,*41
$GPGSA,A,3,31,22,03,25,,,,,,,,,4.73,4.15,2.27*03
$GPGSV,2,1,05,03,28,293,38,22,29,268,30,25,15,045,28,29,28,070,19*77
$GPGSV,2,2,05,31,64,022,29*47
$GPGLL,3640.01007,N,11708.17724,E,085331.00,A,A*6A



$GPRMC,085332.00,A,3640.00983,N,11708.17739,E,4.056,160.21,171121,,,A*60
$GPVTG,160.21,T,,M,4.056,N,7.513,K,A*3E
$GPGGA,085332.00,3640.00983,N,11708.17739,E,1,04,4.15,127.3,M,-4.7,M,,*49
$GPGSA,A,3,31,22,03,25,,,,,,,,,4.73,4.15,2.27*03
$GPGSV,2,1,05,03,28,293,36,22,29,268,30,25,15,045,28,29,28,070,18*78
$GPGSV,2,2,05,31,64,022,29*47
$GPGLL,3640.00983,N,11708.17739,E,085332.00,A,A*61



$GPRMC,085333.00,A,3640.00956,N,11708.17750,E,5.003,159.77,171121,,,A*6E
$GPVTG,159.77,T,,M,5.003,N,9.266,K,A*3D
$GPGGA,085333.00,3640.00956,N,11708.17750,E,1,04,4.15,127.5,M,-4.7,M,,*49
$GPGSA,A,3,31,22,03,25,,,,,,,,,4.73,4.15,2.27*03
$GPGSV,2,1,05,03,28,293,36,22,29,268,29,25,15,045,27,29,28,070,18*7F
$GPGSV,2,2,05,31,64,022,27*49
$GPGLL,3640.00956,N,11708.17750,E,085333.00,A,A*67



$GPRMC,085334.00,A,3640.00932,N,11708.17761,E,3.719,160.84,171121,,,A*65
$GPVTG,160.84,T,,M,3.719,N,6.888,K,A*34
$GPGGA,085334.00,3640.00932,N,11708.17761,E,1,04,4.15,127.3,M,-4.7,M,,*48
$GPGSA,A,3,31,22,03,25,,,,,,,,,4.73,4.15,2.27*03
$GPGSV,2,1,05,03,28,293,36,22,29,267,29,25,15,045,27,29,28,070,17*7F
$GPGSV,2,2,05,31,64,022,27*49
$GPGLL,3640.00932,N,11708.17761,E,085334.00,A,A*60



$GPRMC,085335.00,A,3640.00915,N,11708.17769,E,1.793,,171121,,,A*7C
$GPVTG,,T,,M,1.793,N,3.321,K,A*2C
$GPGGA,085335.00,3640.00915,N,11708.17769,E,1,04,4.15,127.3,M,-4.7,M,,*44
$GPGSA,A,3,31,22,03,25,,,,,,,,,4.73,4.15,2.27*03
$GPGSV,2,1,05,03,28,293,35,22,29,267,29,25,15,045,27,29,28,070,17*7C
$GPGSV,2,2,05,31,64,022,26*48
$GPGLL,3640.00915,N,11708.17769,E,085335.00,A,A*6C



$GPRMC,085336.00,A,3640.00893,N,11708.17783,E,1.347,,171121,,,A*79
$GPVTG,,T,,M,1.347,N,2.494,K,A*29
$GPGGA,085336.00,3640.00893,N,11708.17783,E,1,04,4.15,127.3,M,-4.7,M,,*4C
$GPGSA,A,3,31,22,03,25,,,,,,,,,4.73,4.15,2.27*03
$GPGSV,2,1,05,03,28,293,35,22,29,267,29,25,15,045,27,29,28,070,18*73
$GPGSV,2,2,05,31,64,022,26*48
$GPGLL,3640.00893,N,11708.17783